[
    {
        "label": "Täydellinen Lauantai",
        "value": 1,
        "lat": 60.180240631103516,
        "lon": 24.950368881225586,
        "street_adr": "Hämeentie 2",
        "postal_code": "00530",
        "municipality": "Helsinki",
        "start_date": "2019-09-03T16:00:00.000Z",
        "end_date": "",
        "tags": "theatre"
    },
    {
        "value": 2,
        "label": "Äktenskapsgrejen",
        "lat": 60.16767501831055,
        "lon": 24.937541961669922,
        "street_adr": "Yrjönkatu 30",
        "postal_code": "00100",
        "municipality": "Helsinki",
        "start_date": "2019-09-09T16:00:00.000Z",
        "end_date": "",
        "tags": "theatre"
    },
    {
        "value": 3,
        "label": "Riistapolku",
        "lat": 60.18167495727539,
        "lon": 24.94272232055664,
        "street_adr": "Eläintarhantie 5",
        "postal_code": "00530",
        "municipality": "Helsinki",
        "start_date": "2019-09-02T16:00:00.000Z",
        "end_date": "",
        "tags": "theatre"
    },
    {
        "value": 4,
        "label": "Kolmen Kimppa",
        "lat": 60.199214935302734,
        "lon": 24.940813064575195,
        "street_adr": "Ratamestarinkatu 5",
        "postal_code": "00520",
        "municipality": "Helsinki",
        "start_date": "2019-09-10T16:00:00.000Z",
        "end_date": "",
        "tags": "theatre"
    },
    {
        "value": 5,
        "label": "Pieni Merenneito",
        "lat": 60.18167495727539,
        "lon": 24.94272232055664,
        "street_adr": "Eläintarhantie 5",
        "postal_code": "00530",
        "municipality": "Helsinki",
        "start_date": "2019-08-27T15:30:00.000Z",
        "end_date": "",
        "tags": "theatre"
    },
    {
        "value": 6,
        "label": "Jazz for Kids -koko perheen jazzklubi",
        "lat": 60.1779899597168,
        "lon": 24.804346084594727,
        "street_adr": "Kulttuuriaukio 2",
        "postal_code": "02100",
        "municipality": "Espoo",
        "start_date": "2019-09-07T08:00:00.000Z",
        "end_date": "2019-12-07T09:45:00.000Z",
        "tags": "concerts"
    },
    {
        "value": 7,
        "label": "Luistelukoulu erityistä tukea tarvitseville lapsille",
        "lat": 60.177494049072266,
        "lon": 24.78569793701172,
        "street_adr": "Urheilupuistontie 3",
        "postal_code": "02200",
        "municipality": "Espoo",
        "start_date": "2019-09-08T08:20:00.000Z",
        "end_date": "2020-03-27T18:00:00.000Z",
        "tags": "sports"
    },
    {
        "value": 8,
        "label": "Espoon luistelukoulut",
        "lat": 60.177494049072266,
        "lon": 24.78569793701172,
        "street_adr": "Urheilupuistontie 3",
        "postal_code": "02200",
        "municipality": "Espoo",
        "start_date": "2019-09-02T13:10:00.000Z",
        "end_date": "2020-03-27T18:00:00.000Z",
        "tags": "sports"
    },
    {
        "value": 9,
        "label": "Pelle",
        "lat": 60.1724853515625,
        "lon": 24.943838119506836,
        "street_adr": "Läntinen Teatterikuja 1",
        "postal_code": "00100",
        "municipality": "Helsinki",
        "start_date": "2019-09-10T16:00:00.000Z",
        "end_date": "",
        "tags": "theatre"
    },
    {
        "value": 10,
        "label": "Kissani Jugoslavia",
        "lat": 60.1724853515625,
        "lon": 24.943838119506836,
        "street_adr": "Läntinen Teatterikuja 1",
        "postal_code": "00100",
        "municipality": "Helsinki",
        "start_date": "2019-09-13T16:00:00.000Z",
        "end_date": "",
        "tags": "theatre"
    },
    {
        "value": 11,
        "label": "Sapiens",
        "lat": 60.1724853515625,
        "lon": 24.943838119506836,
        "street_adr": "Läntinen Teatterikuja 1",
        "postal_code": "00100",
        "municipality": "Helsinki",
        "start_date": "2019-09-09T16:00:00.000Z",
        "end_date": "",
        "tags": "theatre"
    },
    {
        "value": 12,
        "label": "Puhdistus",
        "lat": 60.17245101928711,
        "lon": 24.954925537109375,
        "street_adr": "Vironkatu 7",
        "postal_code": "00170",
        "municipality": "Helsinki",
        "start_date": "2019-09-04T16:00:00.000Z",
        "end_date": "",
        "tags": "theatre"
    }
]
